[
      {
            "nombre": "Ciudad de México",
            "estado": "Cdmx",
            "coordenadas": {
                  "lat": 19.357272,
                  "lng": -99.147104
            },
            "habitantes": 9209944
      },
      {
            "nombre": "Tijuana",
            "estado": "Baja California Norte",
            "coordenadas": {
                  "lat": 32.503573,
                  "lng": -116.967028
            },
            "habitantes": 1321004
      },
      {
            "nombre": "León",
            "estado": "Guanajuato",
            "coordenadas": {
                  "lat": 21.128611,
                  "lng": -101.667725
            },
            "habitantes": 1721215
      },
      {
            "nombre": "Puebla",
            "estado": "Puebla",
            "coordenadas": {
                  "lat": 19.041325,
                  "lng": -98.210819
            },
            "habitantes": 1692181
      },
      {
            "nombre": "Ecatepec",
            "estado": "Estado de México",
            "coordenadas": {
                  "lat": 19.560188,
                  "lng": -99.042173
            },
            "habitantes": 1645352
      },
      {
            "nombre": "Juárez",
            "estado": "Chihuahua",
            "coordenadas": {
                  "lat": 31.668894,
                  "lng": -106.412507
            },
            "habitantes": 1501551
      },
      {
            "nombre": "Guadalajara",
            "estado": "Jalisco",
            "coordenadas": {
                  "lat": 20.676012,
                  "lng": -103.335069
            },
            "habitantes": 1385621
      },
      {
            "nombre": "Zapopan",
            "estado": "Jalisco",
            "coordenadas": {
                  "lat": 20.680661,
                  "lng": -103.416343
            },
            "habitantes": 1257547
      },
      {
            "nombre": "Monterrey",
            "estado": "Jalisco",
            "coordenadas": {
                  "lat": 25.711352,
                  "lng": -100.332418
            },
            "habitantes": 1142952
      },
      {
            "nombre": "Nezahualcóyotl",
            "estado": "Jalisco",
            "coordenadas": {
                  "lat": 19.411749,
                  "lng": -99.024151
            },
            "habitantes": 1072676
      }
]